{"type":"FeatureCollection","features":[{"type":"Feature","geometry":{"type":"LineString","coordinates":[[-3.1878,55.9444],[-3.1880598,55.94455],[-3.1883417,55.9446526],[-3.1886015,55.9448026],[-3.1888834,55.9449052],[-3.1891432,55.9450552],[-3.1894251,55.9451578],[-3.189685,55.9453078],[-3.1899669,55.9454104],[-3.1902267,55.9455604],[-3.1905086,55.945663],[-3.1907684,55.945813],[-3.1910282,55.945963],[-3.191221,55.9457332],[-3.191371,55.9454734],[-3.1915639,55.9452436],[-3.1918593,55.9451915],[-3.1921547,55.9451394],[-3.1918949,55.9449894],[-3.1916351,55.9448394],[-3.1914053,55.9446466],[-3.1911455,55.9444966],[-3.1910934,55.9442011],[-3.1910934,55.9439011],[-3.1910934,55.9436011],[-3.1911455,55.9433057],[-3.1911455,55.9430057],[-3.1908636,55.9429031],[-3.1905817,55.9428005],[-3.1903519,55.9429933],[-3.1900921,55.9431433],[-3.1901947,55.9434252],[-3.1902973,55.9437071],[-3.1904473,55.9439669],[-3.1901518,55.944019],[-3.1898564,55.9440711],[-3.1895966,55.9439211],[-3.1893368,55.9437711],[-3.189077,55.9436211],[-3.1888172,55.9434711],[-3.1886672,55.9432113],[-3.1885646,55.9434932],[-3.1884146,55.943753],[-3.188312,55.9440349],[-3.1880522,55.9438849],[-3.1877923,55.9437349],[-3.1875325,55.9435849],[-3.1872727,55.9434349],[-3.1870129,55.9432849],[-3.1867531,55.9431349],[-3.1864933,55.9429849],[-3.1862635,55.9427921],[-3.1859681,55.9428442],[-3.1856681,55.9428442],[-3.1853726,55.9428963],[-3.1850772,55.9429484],[-3.1847817,55.9430005],[-3.1849746,55.9432303],[-3.1851674,55.9434601],[-3.1853174,55.9437199],[-3.1855102,55.9439497],[-3.1856128,55.9442316],[-3.185383,55.9444245],[-3.1851902,55.9446543],[-3.1849604,55.9448471],[-3.1847675,55.9450769],[-3.1845377,55.9452698],[-3.1848196,55.9453724],[-3.1850794,55.9455224],[-3.1853614,55.945625],[-3.1856212,55.945775],[-3.1859166,55.9457229],[-3.1862166,55.9457229],[-3.186512,55.9456708],[-3.186812,55.9456708],[-3.187112,55.9456708],[-3.1869192,55.945441],[-3.1867692,55.9451812],[-3.1864692,55.9451812],[-3.1865718,55.9448993],[-3.1864218,55.9451591],[-3.1865718,55.9448993],[-3.1864218,55.9451591],[-3.1865718,55.9448993],[-3.1864218,55.9451591],[-3.1865718,55.9448993],[-3.1864218,55.9451591],[-3.1865718,55.9448993],[-3.1864218,55.9451591],[-3.1865718,55.9448993],[-3.1864218,55.9451591],[-3.1865244,55.9448772],[-3.1866744,55.9446174],[-3.1869699,55.9445653],[-3.1872653,55.9445132],[-3.1875607,55.9445653],[-3.1878562,55.9446174],[-3.1880062,55.9448772],[-3.1881562,55.945137],[-3.1883062,55.9453968],[-3.1884088,55.9456787],[-3.1887088,55.9456787],[-3.1890088,55.9456787],[-3.1893088,55.9456787],[-3.1896042,55.9456266],[-3.1898861,55.945524],[-3.1901816,55.9454719],[-3.1904635,55.9453693],[-3.1907589,55.9453172],[-3.1910408,55.9452146],[-3.1907454,55.9451625],[-3.19045,55.9451104],[-3.1901681,55.9450078],[-3.1898726,55.9449557],[-3.1895907,55.9448531],[-3.1892953,55.944801],[-3.1890134,55.9446984],[-3.1887179,55.9446463],[-3.188436,55.9445437],[-3.1881406,55.9444916],[-3.1878587,55.944389]]},"properties":{}},{"type":"Feature","geometry":{"type":"Point","coordinates":[-3.191161,55.945976]},"properties":{"marker-size":"medium","rgb-string":"#000000","marker-color":"#000000","marker-symbol":"cross","location":"simple.rust.audio"}},{"type":"Feature","geometry":{"type":"Point","coordinates":[-3.191594,55.945195]},"properties":{"marker-size":"medium","rgb-string":"#ff4000","marker-color":"#ff4000","marker-symbol":"danger","location":"hills.feels.tunes"}},{"type":"Feature","geometry":{"type":"Point","coordinates":[-3.192221,55.945114]},"properties":{"marker-size":"medium","rgb-string":"#ffc000","marker-color":"#ffc000","marker-symbol":"danger","location":"useful.hike.trades"}},{"type":"Feature","geometry":{"type":"Point","coordinates":[-3.191065,55.94444]},"properties":{"marker-size":"medium","rgb-string":"#000000","marker-color":"#000000","marker-symbol":"cross","location":"paying.crowd.weep"}},{"type":"Feature","geometry":{"type":"Point","coordinates":[-3.191113,55.94417]},"properties":{"marker-size":"medium","rgb-string":"#000000","marker-color":"#000000","marker-symbol":"cross","location":"hills.giant.crate"}},{"type":"Feature","geometry":{"type":"Point","coordinates":[-3.191113,55.943901]},"properties":{"marker-size":"medium","rgb-string":"#40ff00","marker-color":"#40ff00","marker-symbol":"lighthouse","location":"spicy.bunch.shady"}},{"type":"Feature","geometry":{"type":"Point","coordinates":[-3.191161,55.943065]},"properties":{"marker-size":"medium","rgb-string":"#00ff00","marker-color":"#00ff00","marker-symbol":"lighthouse","location":"else.urban.museum"}},{"type":"Feature","geometry":{"type":"Point","coordinates":[-3.190583,55.942823]},"properties":{"marker-size":"medium","rgb-string":"#40ff00","marker-color":"#40ff00","marker-symbol":"lighthouse","location":"tonic.bliss.cove"}},{"type":"Feature","geometry":{"type":"Point","coordinates":[-3.190053,55.943173]},"properties":{"marker-size":"medium","rgb-string":"#40ff00","marker-color":"#40ff00","marker-symbol":"lighthouse","location":"shows.fries.lamp"}},{"type":"Feature","geometry":{"type":"Point","coordinates":[-3.190438,55.943982]},"properties":{"marker-size":"medium","rgb-string":"#40ff00","marker-color":"#40ff00","marker-symbol":"lighthouse","location":"pump.wheels.hulk"}},{"type":"Feature","geometry":{"type":"Point","coordinates":[-3.189812,55.94409]},"properties":{"marker-size":"medium","rgb-string":"#000000","marker-color":"#000000","marker-symbol":"cross","location":"cliff.asleep.wedge"}},{"type":"Feature","geometry":{"type":"Point","coordinates":[-3.188704,55.943389]},"properties":{"marker-size":"medium","rgb-string":"#00ff00","marker-color":"#00ff00","marker-symbol":"lighthouse","location":"system.speak.guard"}},{"type":"Feature","geometry":{"type":"Point","coordinates":[-3.188608,55.943119]},"properties":{"marker-size":"medium","rgb-string":"#40ff00","marker-color":"#40ff00","marker-symbol":"lighthouse","location":"groups.ideas.script"}},{"type":"Feature","geometry":{"type":"Point","coordinates":[-3.188271,55.944063]},"properties":{"marker-size":"medium","rgb-string":"#40ff00","marker-color":"#40ff00","marker-symbol":"lighthouse","location":"rush.crown.link"}},{"type":"Feature","geometry":{"type":"Point","coordinates":[-3.186248,55.942796]},"properties":{"marker-size":"medium","rgb-string":"#ff4000","marker-color":"#ff4000","marker-symbol":"danger","location":"under.retire.bump"}},{"type":"Feature","geometry":{"type":"Point","coordinates":[-3.185573,55.942877]},"properties":{"marker-size":"medium","rgb-string":"#000000","marker-color":"#000000","marker-symbol":"cross","location":"dent.shins.cycle"}},{"type":"Feature","geometry":{"type":"Point","coordinates":[-3.184754,55.943012]},"properties":{"marker-size":"medium","rgb-string":"#ffc000","marker-color":"#ffc000","marker-symbol":"danger","location":"courier.assume.bill"}},{"type":"Feature","geometry":{"type":"Point","coordinates":[-3.185525,55.943982]},"properties":{"marker-size":"medium","rgb-string":"#000000","marker-color":"#000000","marker-symbol":"cross","location":"manliness.poem.cliff"}},{"type":"Feature","geometry":{"type":"Point","coordinates":[-3.18567,55.944359]},"properties":{"marker-size":"medium","rgb-string":"#ff8000","marker-color":"#ff8000","marker-symbol":"danger","location":"atoms.vanish.foods"}},{"type":"Feature","geometry":{"type":"Point","coordinates":[-3.184513,55.945302]},"properties":{"marker-size":"medium","rgb-string":"#ff8000","marker-color":"#ff8000","marker-symbol":"danger","location":"settle.title.united"}},{"type":"Feature","geometry":{"type":"Point","coordinates":[-3.185621,55.945761]},"properties":{"marker-size":"medium","rgb-string":"#ff0000","marker-color":"#ff0000","marker-symbol":"danger","location":"shed.desire.muddy"}},{"type":"Feature","geometry":{"type":"Point","coordinates":[-3.186729,55.945653]},"properties":{"marker-size":"medium","rgb-string":"#ffc000","marker-color":"#ffc000","marker-symbol":"danger","location":"hidden.handle.softly"}},{"type":"Feature","geometry":{"type":"Point","coordinates":[-3.187259,55.945653]},"properties":{"marker-size":"medium","rgb-string":"#ffc000","marker-color":"#ffc000","marker-symbol":"danger","location":"diner.leaves.mutual"}},{"type":"Feature","geometry":{"type":"Point","coordinates":[-3.186922,55.945437]},"properties":{"marker-size":"medium","rgb-string":"#ff0000","marker-color":"#ff0000","marker-symbol":"danger","location":"spent.spoon.bolt"}},{"type":"Feature","geometry":{"type":"Point","coordinates":[-3.186729,55.945168]},"properties":{"marker-size":"medium","rgb-string":"#ff0000","marker-color":"#ff0000","marker-symbol":"danger","location":"dragon.bottle.crisp"}},{"type":"Feature","geometry":{"type":"Point","coordinates":[-3.186777,55.944575]},"properties":{"marker-size":"medium","rgb-string":"#ffc000","marker-color":"#ffc000","marker-symbol":"danger","location":"artist.gets.react"}},{"type":"Feature","geometry":{"type":"Point","coordinates":[-3.187307,55.944494]},"properties":{"marker-size":"medium","rgb-string":"#ffc000","marker-color":"#ffc000","marker-symbol":"danger","location":"only.fairly.rift"}},{"type":"Feature","geometry":{"type":"Point","coordinates":[-3.187885,55.944709]},"properties":{"marker-size":"medium","rgb-string":"#000000","marker-color":"#000000","marker-symbol":"cross","location":"hurt.green.filer"}},{"type":"Feature","geometry":{"type":"Point","coordinates":[-3.18803,55.944979]},"properties":{"marker-size":"medium","rgb-string":"#80ff00","marker-color":"#80ff00","marker-symbol":"lighthouse","location":"agents.mile.crib"}},{"type":"Feature","geometry":{"type":"Point","coordinates":[-3.188463,55.945761]},"properties":{"marker-size":"medium","rgb-string":"#ff4000","marker-color":"#ff4000","marker-symbol":"danger","location":"bend.tubes.chops"}},{"type":"Feature","geometry":{"type":"Point","coordinates":[-3.18933,55.945653]},"properties":{"marker-size":"medium","rgb-string":"#ff0000","marker-color":"#ff0000","marker-symbol":"danger","location":"museum.spicy.horns"}},{"type":"Feature","geometry":{"type":"Point","coordinates":[-3.190438,55.945383]},"properties":{"marker-size":"medium","rgb-string":"#ffc000","marker-color":"#ffc000","marker-symbol":"danger","location":"jump.crop.fits"}},{"type":"Feature","geometry":{"type":"Point","coordinates":[-3.191016,55.945248]},"properties":{"marker-size":"medium","rgb-string":"#ffc000","marker-color":"#ffc000","marker-symbol":"danger","location":"maple.limit.hotels"}}]}