{"type":"FeatureCollection","features":[{"type":"Feature","geometry":{"type":"LineString","coordinates":[[-3.1878,55.9444],[-3.18765,55.9441402],[-3.1875,55.9438804],[-3.1873974,55.9435985],[-3.1872474,55.9433387],[-3.1871448,55.9430568],[-3.1869948,55.942797],[-3.1870974,55.9430789],[-3.1872474,55.9433387],[-3.18735,55.9436206],[-3.1871572,55.9438504],[-3.1872093,55.9441458],[-3.1873119,55.9444277],[-3.1876119,55.9444277],[-3.1878717,55.9442777],[-3.1881315,55.9441277],[-3.1881315,55.9438277],[-3.1882815,55.9435679],[-3.1884743,55.9433381],[-3.1886243,55.9430783],[-3.1886764,55.9433738],[-3.1888264,55.9436336],[-3.1889764,55.9438934],[-3.1891264,55.9441532],[-3.1894219,55.9441011],[-3.1897219,55.9441011],[-3.1899817,55.9439511],[-3.1902115,55.9437582],[-3.1901089,55.9434763],[-3.1900063,55.9431944],[-3.1899037,55.9429125],[-3.1897537,55.9426527],[-3.1900356,55.9427553],[-3.1902954,55.9429053],[-3.1905773,55.9430079],[-3.1908592,55.9429053],[-3.191119,55.9427553],[-3.1911711,55.9430508],[-3.1911711,55.9433508],[-3.191119,55.9436462],[-3.191119,55.9439462],[-3.1910669,55.9442416],[-3.1910669,55.9445416],[-3.1910669,55.9448416],[-3.1910669,55.9451416],[-3.191119,55.9454371],[-3.191119,55.9457371],[-3.1911711,55.9460325],[-3.1908756,55.9459804],[-3.1905802,55.9459283],[-3.1902848,55.9458762],[-3.1899893,55.9458242],[-3.1896939,55.9457721],[-3.1893939,55.9457721],[-3.189112,55.9456695],[-3.188812,55.9456695],[-3.1885301,55.9455668],[-3.1882346,55.9455148],[-3.1879346,55.9455148],[-3.1876346,55.9455148],[-3.1873346,55.9455148],[-3.1870392,55.9455668],[-3.1868463,55.945337],[-3.1866963,55.9450772],[-3.1865463,55.945337],[-3.1863963,55.9455968],[-3.1861665,55.9457897],[-3.1859067,55.9459397],[-3.1856469,55.9457897],[-3.185365,55.9456871],[-3.1850831,55.9455845],[-3.1848233,55.9454345],[-3.1845414,55.9453319],[-3.1846914,55.9450721],[-3.1848414,55.9448122],[-3.1851012,55.9446622],[-3.1850491,55.9443668],[-3.184997,55.9440714],[-3.184997,55.9437714],[-3.1849449,55.9434759],[-3.1851747,55.9436688],[-3.1854045,55.9438616],[-3.1856643,55.9440116],[-3.1859241,55.9441616],[-3.1860268,55.9438797],[-3.1863222,55.9439318],[-3.1866176,55.9439839],[-3.1869131,55.944036],[-3.187195,55.9441386],[-3.1874769,55.9442412],[-3.1877367,55.9443912]]},"properties":{}},{"type":"Feature","geometry":{"type":"Point","coordinates":[-3.18697,55.942688]},"properties":{"marker-size":"medium","rgb-string":"#ff4000","marker-color":"#ff4000","marker-symbol":"danger","location":"strut.river.surely"}},{"type":"Feature","geometry":{"type":"Point","coordinates":[-3.187355,55.943604]},"properties":{"marker-size":"medium","rgb-string":"#80ff00","marker-color":"#80ff00","marker-symbol":"lighthouse","location":"shut.stands.media"}},{"type":"Feature","geometry":{"type":"Point","coordinates":[-3.187018,55.943982]},"properties":{"marker-size":"medium","rgb-string":"#80ff00","marker-color":"#80ff00","marker-symbol":"lighthouse","location":"renew.ears.tend"}},{"type":"Feature","geometry":{"type":"Point","coordinates":[-3.187307,55.944494]},"properties":{"marker-size":"medium","rgb-string":"#ffc000","marker-color":"#ffc000","marker-symbol":"danger","location":"only.fairly.rift"}},{"type":"Feature","geometry":{"type":"Point","coordinates":[-3.187789,55.944386]},"properties":{"marker-size":"medium","rgb-string":"#40ff00","marker-color":"#40ff00","marker-symbol":"lighthouse","location":"thank.salsa.brain"}},{"type":"Feature","geometry":{"type":"Point","coordinates":[-3.188271,55.944063]},"properties":{"marker-size":"medium","rgb-string":"#00ff00","marker-color":"#00ff00","marker-symbol":"lighthouse","location":"rush.crown.link"}},{"type":"Feature","geometry":{"type":"Point","coordinates":[-3.188126,55.943793]},"properties":{"marker-size":"medium","rgb-string":"#40ff00","marker-color":"#40ff00","marker-symbol":"lighthouse","location":"cubs.trucks.help"}},{"type":"Feature","geometry":{"type":"Point","coordinates":[-3.188608,55.943119]},"properties":{"marker-size":"medium","rgb-string":"#40ff00","marker-color":"#40ff00","marker-symbol":"lighthouse","location":"groups.ideas.script"}},{"type":"Feature","geometry":{"type":"Point","coordinates":[-3.188704,55.943389]},"properties":{"marker-size":"medium","rgb-string":"#00ff00","marker-color":"#00ff00","marker-symbol":"lighthouse","location":"system.speak.guard"}},{"type":"Feature","geometry":{"type":"Point","coordinates":[-3.189138,55.944197]},"properties":{"marker-size":"medium","rgb-string":"#40ff00","marker-color":"#40ff00","marker-symbol":"lighthouse","location":"spoon.invest.every"}},{"type":"Feature","geometry":{"type":"Point","coordinates":[-3.189812,55.94409]},"properties":{"marker-size":"medium","rgb-string":"#40ff00","marker-color":"#40ff00","marker-symbol":"lighthouse","location":"cliff.asleep.wedge"}},{"type":"Feature","geometry":{"type":"Point","coordinates":[-3.190294,55.943712]},"properties":{"marker-size":"medium","rgb-string":"#40ff00","marker-color":"#40ff00","marker-symbol":"lighthouse","location":"sculpture.shot.melon"}},{"type":"Feature","geometry":{"type":"Point","coordinates":[-3.189764,55.942661]},"properties":{"marker-size":"medium","rgb-string":"#40ff00","marker-color":"#40ff00","marker-symbol":"lighthouse","location":"hooked.shine.third"}},{"type":"Feature","geometry":{"type":"Point","coordinates":[-3.190727,55.943092]},"properties":{"marker-size":"medium","rgb-string":"#00ff00","marker-color":"#00ff00","marker-symbol":"lighthouse","location":"relate.chill.vest"}},{"type":"Feature","geometry":{"type":"Point","coordinates":[-3.191161,55.942742]},"properties":{"marker-size":"medium","rgb-string":"#00ff00","marker-color":"#00ff00","marker-symbol":"lighthouse","location":"along.spill.limp"}},{"type":"Feature","geometry":{"type":"Point","coordinates":[-3.191161,55.943065]},"properties":{"marker-size":"medium","rgb-string":"#00ff00","marker-color":"#00ff00","marker-symbol":"lighthouse","location":"else.urban.museum"}},{"type":"Feature","geometry":{"type":"Point","coordinates":[-3.191161,55.943362]},"properties":{"marker-size":"medium","rgb-string":"#40ff00","marker-color":"#40ff00","marker-symbol":"lighthouse","location":"meal.feed.large"}},{"type":"Feature","geometry":{"type":"Point","coordinates":[-3.191113,55.943901]},"properties":{"marker-size":"medium","rgb-string":"#00ff00","marker-color":"#00ff00","marker-symbol":"lighthouse","location":"spicy.bunch.shady"}},{"type":"Feature","geometry":{"type":"Point","coordinates":[-3.191065,55.94444]},"properties":{"marker-size":"medium","rgb-string":"#40ff00","marker-color":"#40ff00","marker-symbol":"lighthouse","location":"paying.crowd.weep"}},{"type":"Feature","geometry":{"type":"Point","coordinates":[-3.191161,55.945976]},"properties":{"marker-size":"medium","rgb-string":"#000000","marker-color":"#000000","marker-symbol":"cross","location":"simple.rust.audio"}},{"type":"Feature","geometry":{"type":"Point","coordinates":[-3.188897,55.945707]},"properties":{"marker-size":"medium","rgb-string":"#ff0000","marker-color":"#ff0000","marker-symbol":"danger","location":"stops.else.chats"}},{"type":"Feature","geometry":{"type":"Point","coordinates":[-3.188319,55.945518]},"properties":{"marker-size":"medium","rgb-string":"#000000","marker-color":"#000000","marker-symbol":"cross","location":"skills.less.herb"}},{"type":"Feature","geometry":{"type":"Point","coordinates":[-3.186729,55.945168]},"properties":{"marker-size":"medium","rgb-string":"#ffc000","marker-color":"#ffc000","marker-symbol":"danger","location":"dragon.bottle.crisp"}},{"type":"Feature","geometry":{"type":"Point","coordinates":[-3.186296,55.945761]},"properties":{"marker-size":"medium","rgb-string":"#ff4000","marker-color":"#ff4000","marker-symbol":"danger","location":"posts.kicked.universally"}},{"type":"Feature","geometry":{"type":"Point","coordinates":[-3.185814,55.94603]},"properties":{"marker-size":"medium","rgb-string":"#ff0000","marker-color":"#ff0000","marker-symbol":"danger","location":"renew.slows.basket"}},{"type":"Feature","geometry":{"type":"Point","coordinates":[-3.185621,55.945761]},"properties":{"marker-size":"medium","rgb-string":"#ff4000","marker-color":"#ff4000","marker-symbol":"danger","location":"shed.desire.muddy"}},{"type":"Feature","geometry":{"type":"Point","coordinates":[-3.184513,55.945302]},"properties":{"marker-size":"medium","rgb-string":"#ff4000","marker-color":"#ff4000","marker-symbol":"danger","location":"settle.title.united"}},{"type":"Feature","geometry":{"type":"Point","coordinates":[-3.184899,55.944736]},"properties":{"marker-size":"medium","rgb-string":"#000000","marker-color":"#000000","marker-symbol":"cross","location":"slide.leads.stores"}},{"type":"Feature","geometry":{"type":"Point","coordinates":[-3.185236,55.944575]},"properties":{"marker-size":"medium","rgb-string":"#ff8000","marker-color":"#ff8000","marker-symbol":"danger","location":"acid.chair.butter"}},{"type":"Feature","geometry":{"type":"Point","coordinates":[-3.184947,55.943443]},"properties":{"marker-size":"medium","rgb-string":"#ffc000","marker-color":"#ffc000","marker-symbol":"danger","location":"sentences.sings.modern"}},{"type":"Feature","geometry":{"type":"Point","coordinates":[-3.185525,55.943982]},"properties":{"marker-size":"medium","rgb-string":"#ffc000","marker-color":"#ffc000","marker-symbol":"danger","location":"manliness.poem.cliff"}},{"type":"Feature","geometry":{"type":"Point","coordinates":[-3.186103,55.944251]},"properties":{"marker-size":"medium","rgb-string":"#ff4000","marker-color":"#ff4000","marker-symbol":"danger","location":"organs.shape.fantastic"}},{"type":"Feature","geometry":{"type":"Point","coordinates":[-3.186007,55.943901]},"properties":{"marker-size":"medium","rgb-string":"#ffc000","marker-color":"#ffc000","marker-symbol":"danger","location":"teams.mild.played"}}]}