{"type":"FeatureCollection","features":[{"type":"Feature","geometry":{"type":"LineString","coordinates":[[-3.1878,55.9444],[-3.18765,55.9441402],[-3.1879454,55.9441923],[-3.1882409,55.9442444],[-3.1884707,55.9440515],[-3.1886635,55.9438217],[-3.1888933,55.9436289],[-3.1887005,55.9433991],[-3.1889303,55.9432062],[-3.1891901,55.9430562],[-3.1893401,55.9433161],[-3.189533,55.9435459],[-3.189683,55.9438057],[-3.1897856,55.9440876],[-3.1899356,55.9438278],[-3.1900856,55.943568],[-3.1900335,55.9432725],[-3.1899309,55.9429906],[-3.1897809,55.9427308],[-3.1900763,55.9427829],[-3.1903763,55.9427829],[-3.1906718,55.942835],[-3.1907239,55.9431304],[-3.1907759,55.9434259],[-3.190828,55.9437213],[-3.1908801,55.9440168],[-3.1908801,55.9443168],[-3.1908801,55.9446168],[-3.1909322,55.9449122],[-3.1909843,55.9452077],[-3.1910364,55.9455031],[-3.1910885,55.9457985],[-3.191384,55.9458506],[-3.1916659,55.9459532],[-3.1919613,55.9460053],[-3.1916613,55.9460053],[-3.1913613,55.9460053],[-3.1910613,55.9460053],[-3.1907613,55.9460053],[-3.1904659,55.9459532],[-3.1901704,55.9459011],[-3.1898704,55.9459011],[-3.1895704,55.9459011],[-3.1892704,55.9459011],[-3.1889704,55.9459011],[-3.188675,55.9459532],[-3.1884452,55.9457604],[-3.1882952,55.9455006],[-3.1879952,55.9455006],[-3.1876952,55.9455006],[-3.1873997,55.9455527],[-3.1871043,55.9456048],[-3.1869114,55.945375],[-3.1867186,55.9451452],[-3.1865686,55.9448853],[-3.1864186,55.9446255],[-3.1867141,55.9445734],[-3.1864186,55.9446255],[-3.1861232,55.9446776],[-3.1862258,55.9443957],[-3.1863284,55.9441138],[-3.1866238,55.9440617],[-3.1863284,55.9440096],[-3.1860465,55.943907],[-3.1858536,55.9441368],[-3.1856608,55.9443667],[-3.185401,55.9445167],[-3.1851191,55.9446193],[-3.1848593,55.9447693],[-3.1847093,55.9450291],[-3.1845164,55.9452589],[-3.184619,55.944977],[-3.1847217,55.9446951],[-3.1848243,55.9444132],[-3.1849269,55.9441312],[-3.1851197,55.9439014],[-3.1852223,55.9436195],[-3.1849625,55.9434695],[-3.1848125,55.9432097],[-3.1847099,55.9429278],[-3.1850099,55.9429278],[-3.1853053,55.9428757],[-3.1856053,55.9428757],[-3.1859008,55.9429278],[-3.1862008,55.9429278],[-3.1865008,55.9429278],[-3.1867962,55.9428757],[-3.1870962,55.9428757],[-3.1871483,55.9431712],[-3.1872983,55.943431],[-3.1874483,55.9436908],[-3.1875983,55.9439506],[-3.1877009,55.9442325]]},"properties":{}},{"type":"Feature","geometry":{"type":"Point","coordinates":[-3.187645,55.944143]},"properties":{"marker-size":"medium","rgb-string":"#80ff00","marker-color":"#80ff00","marker-symbol":"lighthouse","location":"bound.ends.matter"}},{"type":"Feature","geometry":{"type":"Point","coordinates":[-3.188415,55.944305]},"properties":{"marker-size":"medium","rgb-string":"#40ff00","marker-color":"#40ff00","marker-symbol":"lighthouse","location":"trades.rare.cable"}},{"type":"Feature","geometry":{"type":"Point","coordinates":[-3.188849,55.943658]},"properties":{"marker-size":"medium","rgb-string":"#40ff00","marker-color":"#40ff00","marker-symbol":"lighthouse","location":"labels.hotels.alert"}},{"type":"Feature","geometry":{"type":"Point","coordinates":[-3.188704,55.943389]},"properties":{"marker-size":"medium","rgb-string":"#40ff00","marker-color":"#40ff00","marker-symbol":"lighthouse","location":"system.speak.guard"}},{"type":"Feature","geometry":{"type":"Point","coordinates":[-3.189234,55.943012]},"properties":{"marker-size":"medium","rgb-string":"#80ff00","marker-color":"#80ff00","marker-symbol":"lighthouse","location":"region.passes.pencil"}},{"type":"Feature","geometry":{"type":"Point","coordinates":[-3.189523,55.943551]},"properties":{"marker-size":"medium","rgb-string":"#40ff00","marker-color":"#40ff00","marker-symbol":"lighthouse","location":"cars.attend.hotels"}},{"type":"Feature","geometry":{"type":"Point","coordinates":[-3.189812,55.94409]},"properties":{"marker-size":"medium","rgb-string":"#00ff00","marker-color":"#00ff00","marker-symbol":"lighthouse","location":"cliff.asleep.wedge"}},{"type":"Feature","geometry":{"type":"Point","coordinates":[-3.190197,55.943443]},"properties":{"marker-size":"medium","rgb-string":"#40ff00","marker-color":"#40ff00","marker-symbol":"lighthouse","location":"arts.dish.scarcely"}},{"type":"Feature","geometry":{"type":"Point","coordinates":[-3.189908,55.942904]},"properties":{"marker-size":"medium","rgb-string":"#40ff00","marker-color":"#40ff00","marker-symbol":"lighthouse","location":"second.launch.miles"}},{"type":"Feature","geometry":{"type":"Point","coordinates":[-3.189764,55.942661]},"properties":{"marker-size":"medium","rgb-string":"#00ff00","marker-color":"#00ff00","marker-symbol":"lighthouse","location":"hooked.shine.third"}},{"type":"Feature","geometry":{"type":"Point","coordinates":[-3.190583,55.942823]},"properties":{"marker-size":"medium","rgb-string":"#40ff00","marker-color":"#40ff00","marker-symbol":"lighthouse","location":"tonic.bliss.cove"}},{"type":"Feature","geometry":{"type":"Point","coordinates":[-3.191016,55.944979]},"properties":{"marker-size":"medium","rgb-string":"#ffc000","marker-color":"#ffc000","marker-symbol":"danger","location":"shapes.sheep.nature"}},{"type":"Feature","geometry":{"type":"Point","coordinates":[-3.191161,55.945976]},"properties":{"marker-size":"medium","rgb-string":"#ff0000","marker-color":"#ff0000","marker-symbol":"danger","location":"simple.rust.audio"}},{"type":"Feature","geometry":{"type":"Point","coordinates":[-3.191883,55.946003]},"properties":{"marker-size":"medium","rgb-string":"#000000","marker-color":"#000000","marker-symbol":"cross","location":"stone.undulation.poems"}},{"type":"Feature","geometry":{"type":"Point","coordinates":[-3.18856,55.946057]},"properties":{"marker-size":"medium","rgb-string":"#ff8000","marker-color":"#ff8000","marker-symbol":"danger","location":"boost.radar.stress"}},{"type":"Feature","geometry":{"type":"Point","coordinates":[-3.188463,55.945761]},"properties":{"marker-size":"medium","rgb-string":"#ff0000","marker-color":"#ff0000","marker-symbol":"danger","location":"bend.tubes.chops"}},{"type":"Feature","geometry":{"type":"Point","coordinates":[-3.188319,55.945518]},"properties":{"marker-size":"medium","rgb-string":"#000000","marker-color":"#000000","marker-symbol":"cross","location":"skills.less.herb"}},{"type":"Feature","geometry":{"type":"Point","coordinates":[-3.186729,55.945168]},"properties":{"marker-size":"medium","rgb-string":"#ff0000","marker-color":"#ff0000","marker-symbol":"danger","location":"dragon.bottle.crisp"}},{"type":"Feature","geometry":{"type":"Point","coordinates":[-3.186777,55.944575]},"properties":{"marker-size":"medium","rgb-string":"#c0ff00","marker-color":"#c0ff00","marker-symbol":"lighthouse","location":"artist.gets.react"}},{"type":"Feature","geometry":{"type":"Point","coordinates":[-3.186537,55.944063]},"properties":{"marker-size":"medium","rgb-string":"#ff4000","marker-color":"#ff4000","marker-symbol":"danger","location":"lime.learns.front"}},{"type":"Feature","geometry":{"type":"Point","coordinates":[-3.186007,55.943901]},"properties":{"marker-size":"medium","rgb-string":"#ffc000","marker-color":"#ffc000","marker-symbol":"danger","location":"teams.mild.played"}},{"type":"Feature","geometry":{"type":"Point","coordinates":[-3.18567,55.944359]},"properties":{"marker-size":"medium","rgb-string":"#ffc000","marker-color":"#ffc000","marker-symbol":"danger","location":"atoms.vanish.foods"}},{"type":"Feature","geometry":{"type":"Point","coordinates":[-3.185236,55.944575]},"properties":{"marker-size":"medium","rgb-string":"#ffc000","marker-color":"#ffc000","marker-symbol":"danger","location":"acid.chair.butter"}},{"type":"Feature","geometry":{"type":"Point","coordinates":[-3.184899,55.944736]},"properties":{"marker-size":"medium","rgb-string":"#c0ff00","marker-color":"#c0ff00","marker-symbol":"lighthouse","location":"slide.leads.stores"}},{"type":"Feature","geometry":{"type":"Point","coordinates":[-3.184513,55.945302]},"properties":{"marker-size":"medium","rgb-string":"#ff0000","marker-color":"#ff0000","marker-symbol":"danger","location":"settle.title.united"}},{"type":"Feature","geometry":{"type":"Point","coordinates":[-3.18514,55.943685]},"properties":{"marker-size":"medium","rgb-string":"#ff8000","marker-color":"#ff8000","marker-symbol":"danger","location":"hello.love.keys"}},{"type":"Feature","geometry":{"type":"Point","coordinates":[-3.184947,55.943443]},"properties":{"marker-size":"medium","rgb-string":"#ff0000","marker-color":"#ff0000","marker-symbol":"danger","location":"sentences.sings.modern"}},{"type":"Feature","geometry":{"type":"Point","coordinates":[-3.184803,55.943173]},"properties":{"marker-size":"medium","rgb-string":"#ffc000","marker-color":"#ffc000","marker-symbol":"danger","location":"brings.remedy.latter"}},{"type":"Feature","geometry":{"type":"Point","coordinates":[-3.184754,55.943012]},"properties":{"marker-size":"medium","rgb-string":"#ff0000","marker-color":"#ff0000","marker-symbol":"danger","location":"courier.assume.bill"}},{"type":"Feature","geometry":{"type":"Point","coordinates":[-3.185573,55.942877]},"properties":{"marker-size":"medium","rgb-string":"#ff4000","marker-color":"#ff4000","marker-symbol":"danger","location":"dent.shins.cycle"}},{"type":"Feature","geometry":{"type":"Point","coordinates":[-3.186344,55.942958]},"properties":{"marker-size":"medium","rgb-string":"#ff8000","marker-color":"#ff8000","marker-symbol":"danger","location":"hers.banks.goat"}},{"type":"Feature","geometry":{"type":"Point","coordinates":[-3.187018,55.942877]},"properties":{"marker-size":"medium","rgb-string":"#c0ff00","marker-color":"#c0ff00","marker-symbol":"lighthouse","location":"valve.elaborate.fortunate"}},{"type":"Feature","geometry":{"type":"Point","coordinates":[-3.187211,55.943335]},"properties":{"marker-size":"medium","rgb-string":"#c0ff00","marker-color":"#c0ff00","marker-symbol":"lighthouse","location":"scale.chair.kinds"}}]}